,transport,traffic,roads,railway,poi,places,landuse,building,city,city_code,longitude,latitude
0,27.0,139.0,5777.0,138.0,88.0,285.0,577.0,1097.0,安庆市,340800,116.48599180000001,30.57552958
1,91.0,58.0,4752.0,351.0,99.0,141.0,983.0,1734.0,蚌埠市,340300,117.3247233,33.10928673
2,27.0,19.0,5684.0,98.0,6.0,437.0,369.0,271.0,亳州市,341600,116.1802003,33.43557233
3,16.0,117.0,2687.0,115.0,21.0,296.0,248.0,1027.0,池州市,341700,117.3641746,30.28325848
4,122.0,124.0,7117.0,336.0,120.0,427.0,1423.0,3721.0,滁州市,341100,118.10233329999998,32.54422643
5,245.0,62.0,18169.0,853.0,192.0,1143.0,1443.0,7706.0,阜阳市,341200,115.70410600000001,32.91708517
6,1203.0,418.0,24091.0,1436.0,488.0,1838.0,10371.0,6750.0,合肥市,340100,117.3550905,31.76262308
7,53.0,1.0,1932.0,257.0,24.0,71.0,179.0,177.0,淮北市,340600,116.7432627,33.72839774
8,456.0,55.0,7573.0,367.0,127.0,558.0,1243.0,1682.0,淮南市,340400,116.7680215,32.47255328
9,97.0,71.0,12781.0,334.0,772.0,3714.0,5432.0,6643.0,黄山市,341000,118.0709463,29.90653054
10,32.0,65.0,9041.0,308.0,100.0,1195.0,1265.0,867.0,六安市,341500,116.2287615,31.658921199999998
11,155.0,185.0,7089.0,510.0,157.0,1487.0,3967.0,4423.0,马鞍山市,340500,118.36520359999999,31.63860487
12,52.0,32.0,3759.0,388.0,70.0,175.0,332.0,1829.0,宿州市,341300,117.21000790000001,33.85954517
13,46.0,82.0,1754.0,202.0,104.0,139.0,321.0,930.0,铜陵市,340700,117.5556273,30.88462337
14,122.0,309.0,7014.0,351.0,71.0,506.0,1096.0,1070.0,芜湖市,340200,118.1348385,31.16236504
15,26.0,100.0,6372.0,565.0,97.0,988.0,892.0,1293.0,宣城市,341800,118.8517787,30.68569806
16,685.0,177.0,10682.0,45.0,1675.0,61.0,1169.0,11107.0,澳门特别行政区,820000,113.56216709999998,22.16290883
17,7457.0,2477.0,120351.0,7966.0,14156.0,5567.0,19892.0,81471.0,北京市,110000,116.4126385,40.18563339
18,511.0,466.0,52587.0,1681.0,1470.0,2074.0,3887.0,22685.0,福州市,350100,119.2020247,26.04786074
19,165.0,100.0,9131.0,1084.0,183.0,444.0,834.0,1413.0,龙岩市,350800,116.73893970000002,25.29315682
20,89.0,127.0,11433.0,1781.0,253.0,1004.0,2285.0,689.0,南平市,350700,118.14209579999999,27.33944484
21,215.0,244.0,17968.0,530.0,450.0,1389.0,1699.0,689.0,宁德市,350900,119.49050829999999,26.97080303
22,60.0,107.0,7497.0,129.0,109.0,227.0,1068.0,260.0,莆田市,350300,118.90110220000001,25.44334621
23,94.0,198.0,15650.0,775.0,798.0,919.0,1297.0,1484.0,泉州市,350500,118.2648574,25.19265575
24,138.0,91.0,11011.0,1003.0,113.0,525.0,899.0,2220.0,三明市,350400,117.3958118,26.29945447
25,643.0,238.0,14481.0,552.0,1179.0,123.0,1317.0,5974.0,厦门市,350200,118.12033980000001,24.66184087
26,38.0,185.0,19843.0,477.0,250.0,894.0,1147.0,1055.0,漳州市,350600,117.4538756,24.33173139
27,178.0,92.0,10300.0,396.0,152.0,1292.0,2950.0,4523.0,白银市,620400,104.62162159999998,36.61350215
28,53.0,74.0,14013.0,478.0,233.0,1834.0,3891.0,4546.0,定西市,621100,104.4529881,35.11963209
29,8.0,21.0,4325.0,1e-06,218.0,1012.0,752.0,2136.0,甘南藏族自治州,623000,102.76452579999999,34.32153236
30,19.0,27.0,1199.0,752.0,263.0,6.0,263.0,277.0,嘉峪关市,620200,98.21052423,39.82837139
31,4.0,12.0,1823.0,388.0,98.0,101.0,533.0,198.0,金昌市,620300,102.04346590000002,38.43220687
32,82.0,139.0,9487.0,810.0,783.0,348.0,1315.0,4165.0,酒泉市,620900,96.05604704,40.26035992
33,1486.0,228.0,26620.0,2696.0,2399.0,965.0,5488.0,35042.0,兰州市,620100,103.6380054,36.35519362
34,26.0,77.0,9979.0,24.0,255.0,798.0,1938.0,4202.0,临夏回族自治州,622900,103.2873444,35.62419073
35,46.0,35.0,12571.0,246.0,349.0,3039.0,2761.0,3032.0,陇南市,621200,105.22190390000002,33.59690725
36,41.0,51.0,8245.0,451.0,104.0,1100.0,1517.0,2941.0,平凉市,620800,106.6479524,35.30587369
37,56.0,49.0,9845.0,604.0,177.0,657.0,909.0,4384.0,庆阳市,621000,107.5905094,36.16249081
38,688.0,59.0,16532.0,1044.0,534.0,1607.0,5261.0,8943.0,天水市,620500,105.73778390000001,34.64732994
39,30.0,56.0,6535.0,412.0,542.0,454.0,2616.0,793.0,武威市,620600,103.0572447,38.17552027
40,39.0,91.0,4853.0,362.0,234.0,244.0,737.0,486.0,张掖市,620700,99.82270207,38.9557895
41,66.0,113.0,9599.0,124.0,342.0,1232.0,1440.0,1984.0,潮州市,445100,116.7855457,23.78554642
42,148.0,236.0,20635.0,656.0,339.0,587.0,1428.0,6471.0,东莞市,441900,113.874986,22.9345278
43,3547.0,341.0,40984.0,990.0,555.0,933.0,4323.0,5643.0,佛山市,440600,112.944453,23.00652761
44,11416.0,997.0,86357.0,4157.0,4169.0,937.0,6610.0,40572.0,广州市,440100,113.5390412,23.33085285
45,21.0,86.0,5824.0,919.0,18.0,1597.0,441.0,173.0,河源市,441600,114.9578225,24.04461582
46,693.0,196.0,16857.0,485.0,221.0,1481.0,1032.0,2332.0,惠州市,441300,114.50270259999998,23.23510341
47,1564.0,327.0,28637.0,246.0,1044.0,5953.0,10114.0,6104.0,江门市,440700,112.67255209999999,22.26739023
48,12.0,92.0,6444.0,200.0,75.0,1538.0,821.0,1264.0,揭阳市,445200,116.1197969,23.33613639
49,366.0,323.0,19680.0,511.0,559.0,3400.0,989.0,2183.0,茂名市,440900,110.9534848,22.01009072
50,704.0,180.0,18346.0,419.0,545.0,2473.0,756.0,2308.0,梅州市,441400,116.07941059999999,24.20307298
51,962.0,161.0,15614.0,719.0,295.0,2006.0,2226.0,1854.0,清远市,441800,112.87498740000001,24.31430554
52,258.0,227.0,8201.0,82.0,209.0,655.0,1290.0,6417.0,汕头市,440500,116.59556950000001,23.33031228
53,20.0,93.0,5492.0,178.0,49.0,1021.0,554.0,561.0,汕尾市,441500,115.5889047,22.875304
54,90.0,141.0,7044.0,921.0,116.0,1592.0,541.0,559.0,韶关市,440200,113.7745134,24.82036632
55,7005.0,882.0,52171.0,1604.0,2992.0,767.0,5079.0,25440.0,深圳市,440300,114.13716840000001,22.64531697
56,29.0,88.0,5067.0,189.0,75.0,1429.0,787.0,169.0,阳江市,441700,111.7745686,22.02781209
57,227.0,272.0,7409.0,463.0,573.0,1381.0,1325.0,14166.0,云浮市,445300,111.79365890000001,22.81603286
58,56.0,215.0,15398.0,473.0,166.0,3600.0,1468.0,6255.0,湛江市,440800,110.16494009999998,21.07534974
59,304.0,144.0,11996.0,797.0,482.0,2097.0,1687.0,1076.0,肇庆市,441200,112.20533030000001,23.53770546
60,522.0,126.0,17221.0,87.0,259.0,478.0,1223.0,13282.0,中山市,442000,113.39356599999999,22.51990101
61,3250.0,297.0,16467.0,126.0,570.0,345.0,1544.0,4563.0,珠海市,440400,113.3622223,22.15191816
62,71.0,227.0,15782.0,969.0,125.0,2188.0,3881.0,15116.0,百色市,451000,106.2877601,23.98527037
63,41.0,56.0,3180.0,138.0,193.0,101.0,378.0,896.0,北海市,450500,109.33768459999999,21.66203636
64,23.0,95.0,5634.0,81.0,83.0,704.0,2109.0,768.0,崇左市,451400,107.2738385,22.50297143
65,48.0,249.0,6821.0,453.0,144.0,419.0,1879.0,14103.0,防城港市,450600,108.0128443,21.87172979
66,17.0,93.0,3959.0,225.0,20.0,854.0,696.0,188.0,贵港市,450800,109.9984528,23.30907478
67,382.0,295.0,17482.0,1022.0,1336.0,1960.0,3283.0,4208.0,桂林市,450300,110.51323670000001,25.35528295
68,26.0,119.0,8007.0,258.0,48.0,3606.0,1732.0,472.0,河池市,451200,107.84196100000001,24.64294762
69,21.0,108.0,3421.0,175.0,64.0,318.0,582.0,110.0,贺州市,451100,111.3608713,24.35975362
70,14.0,86.0,3688.0,134.0,19.0,1069.0,482.0,85.0,来宾市,451300,109.4121719,23.85392639
71,210.0,202.0,10204.0,1584.0,78.0,975.0,1887.0,1288.0,柳州市,450200,109.37084490000001,24.94742713
72,352.0,429.0,16894.0,1965.0,1507.0,1482.0,3980.0,3463.0,南宁市,450100,108.4636676,23.05718804
73,39.0,173.0,5986.0,571.0,120.0,417.0,701.0,1012.0,钦州市,450700,109.01577320000001,22.17366078
74,138.0,45.0,4341.0,576.0,59.0,462.0,2591.0,479.0,梧州市,450400,110.99042890000001,23.48093816
75,29.0,137.0,5891.0,334.0,19.0,598.0,568.0,209.0,玉林市,450900,110.18239540000002,22.44219175
76,65.0,33.0,5252.0,520.0,93.0,483.0,582.0,360.0,安顺市,520400,105.9493348,25.99552444
77,59.0,66.0,10810.0,670.0,70.0,1460.0,1080.0,2409.0,毕节市,520500,105.21465740000001,27.06746399
78,171.0,99.0,11756.0,2024.0,372.0,221.0,820.0,2939.0,贵阳市,520100,106.7069334,26.84251645
79,54.0,43.0,6060.0,1574.0,63.0,476.0,1108.0,787.0,六盘水市,520200,104.8913314,26.13609994
80,38.0,77.0,8709.0,1157.0,161.0,1957.0,1871.0,1050.0,黔东南苗族侗族自治州,522600,108.5575013,26.50558057
81,76.0,122.0,9300.0,1327.0,242.0,646.0,3275.0,670.0,黔南布依族苗族自治州,522700,107.2502757,26.01382412
82,29.0,65.0,7255.0,376.0,77.0,1093.0,932.0,716.0,黔西南布依族苗族自治州,522300,105.46418680000001,25.26539889
83,77.0,71.0,6450.0,481.0,64.0,904.0,880.0,711.0,铜仁市,520600,108.5420469,27.97107267
84,174.0,180.0,15652.0,488.0,789.0,841.0,2194.0,1847.0,遵义市,520300,107.0853274,28.16883808
85,2.0,14.0,435.0,2.0,2.0,228.0,54.0,96.0,白沙黎族自治县,469025,109.3476773,19.21145365
86,3.0,14.0,693.0,1e-06,24.0,20.0,112.0,1144.0,保亭黎族苗族自治县,469029,109.64661100000001,18.59140998
87,5.0,9.0,604.0,41.0,4.0,106.0,42.0,37.0,昌江黎族自治县,469026,108.9898588,19.22749548
88,3.0,27.0,2314.0,76.0,97.0,241.0,590.0,153.0,澄迈县,469023,109.98614099999999,19.70182656
89,8.0,20.0,2167.0,149.0,50.0,249.0,763.0,380.0,儋州市,460400,109.3862008,19.58191678
90,1e-06,16.0,633.0,1e-06,16.0,106.0,319.0,22.0,定安县,469021,110.3086113,19.48500595
91,5.0,16.0,754.0,127.0,15.0,108.0,54.0,83.0,东方市,469007,108.81502920000001,18.99781225
92,110.0,113.0,6189.0,194.0,362.0,51.0,2248.0,1660.0,海口市,460100,110.4187058,19.85391516
93,4.0,30.0,996.0,63.0,42.0,81.0,197.0,44.0,乐东黎族自治县,469027,109.02566270000001,18.64142024
94,16.0,12.0,1254.0,23.0,208.0,78.0,806.0,100.0,临高县,469024,109.7114152,19.81166656
95,44.0,30.0,2166.0,67.0,184.0,76.0,389.0,940.0,陵水黎族自治县,469028,109.94724950000001,18.55120847
96,26.0,30.0,990.0,64.0,23.0,32.0,144.0,129.0,琼海市,469002,110.4176137,19.21199099
97,2.0,5.0,875.0,1e-06,7.0,50.0,94.0,228.0,琼中黎族苗族自治县,469030,109.8504045,19.03552648
98,19.0,10.0,381.0,1e-06,106.0,10.0,91.0,823.0,三沙市,460300,113.67490890000002,9.826371128
99,515.0,130.0,5237.0,301.0,1695.0,32.0,677.0,22684.0,三亚市,460200,109.41765020000001,18.363836
100,1e-06,14.0,754.0,1e-06,31.0,216.0,201.0,141.0,屯昌县,469022,110.0515501,19.34385258
101,12.0,15.0,1126.0,164.0,40.0,34.0,36.0,164.0,万宁市,469006,110.32022020000001,18.83201297
102,5.0,40.0,1765.0,146.0,36.0,60.0,347.0,151.0,文昌市,469005,110.7843123,19.7491203
103,2.0,4.0,490.0,1e-06,5.0,39.0,98.0,37.0,五指山市,469001,109.50770130000001,18.825706399999998
104,332.0,201.0,29092.0,798.0,852.0,7274.0,3849.0,14746.0,保定市,130600,115.1711311,39.0215841
105,55.0,66.0,38167.0,917.0,16.0,5913.0,2388.0,24832.0,沧州市,130900,116.765643,38.26868205
106,108.0,52.0,10327.0,1478.0,581.0,4233.0,1221.0,3012.0,承德市,130800,117.5470245,41.34722488
107,47.0,45.0,32355.0,972.0,23.0,5076.0,1956.0,11715.0,邯郸市,130400,114.54295060000001,36.55244711
108,26.0,43.0,27398.0,308.0,2.0,4929.0,2204.0,15756.0,衡水市,131100,115.8228812,37.76257514
109,96.0,72.0,23840.0,578.0,97.0,3231.0,3155.0,8189.0,廊坊市,131000,116.62820570000001,39.25936970000001
110,209.0,122.0,6556.0,1076.0,637.0,150.0,989.0,6708.0,秦皇岛市,130300,119.18742009999998,40.0852429
111,241.0,175.0,34995.0,1410.0,453.0,3083.0,3040.0,7732.0,石家庄市,130100,114.43949380000001,38.13053735
112,609.0,270.0,25637.0,2670.0,1166.0,1866.0,6440.0,15522.0,唐山市,130200,118.33230490000001,39.70886152
113,40.0,29.0,27130.0,339.0,55.0,5233.0,1299.0,11447.0,邢台市,130500,114.8166568,37.2122495
114,272.0,251.0,28038.0,2433.0,2294.0,8503.0,10431.0,8293.0,张家口市,130700,115.03184180000001,40.86491896
115,22.0,64.0,19057.0,438.0,31.0,3399.0,1043.0,8001.0,安阳市,410500,114.35354939999999,35.87703964
116,13.0,53.0,9802.0,94.0,50.0,1053.0,1060.0,6803.0,鹤壁市,410600,114.30933,35.72306663
117,5.0,25.0,1554.0,122.0,1.0,10.0,39.0,60.0,济源市,419001,112.3924557,35.09959215
118,21.0,30.0,11320.0,465.0,12.0,762.0,940.0,4719.0,焦作市,410800,113.13181270000001,35.11257246
119,18.0,73.0,10936.0,96.0,21.0,2214.0,1344.0,6014.0,开封市,410200,114.53538710000001,34.60479893
120,2202.0,439.0,22050.0,969.0,422.0,416.0,2825.0,21442.0,洛阳市,410300,112.03177,34.29236569
121,13.0,37.0,3321.0,144.0,32.0,466.0,538.0,441.0,漯河市,411100,113.89965430000001,33.655650099999995
122,51.0,129.0,16810.0,1013.0,124.0,1832.0,10643.0,778.0,南阳市,411300,112.2834582,33.04421864
123,788.0,104.0,6111.0,734.0,399.0,667.0,797.0,1142.0,平顶山市,410400,113.01094850000001,33.79587441
124,174.0,71.0,14934.0,183.0,404.0,2925.0,1053.0,5672.0,濮阳市,410900,115.2816646,35.80874277
125,44.0,49.0,4691.0,634.0,30.0,135.0,352.0,468.0,三门峡市,411200,111.1060472,34.36107505
126,26.0,20.0,5257.0,315.0,12.0,660.0,513.0,632.0,商丘市,411400,115.69759779999998,34.2891748
127,23.0,39.0,24317.0,280.0,101.0,4052.0,1651.0,9200.0,新乡市,410700,114.0894418,35.26381432
128,64.0,177.0,12874.0,1052.0,393.0,3597.0,1339.0,3269.0,信阳市,411500,114.8835408,32.08132574
129,32.0,4.0,4335.0,200.0,18.0,1025.0,175.0,651.0,许昌市,411000,113.7096892,34.07234436
130,220.0,223.0,30489.0,3093.0,313.0,2061.0,3365.0,23587.0,郑州市,410100,113.4726362,34.6255035
131,40.0,48.0,6709.0,103.0,30.0,616.0,324.0,735.0,周口市,411600,114.8776668,33.72195465
132,102.0,78.0,5901.0,228.0,75.0,386.0,560.0,644.0,驻马店市,411700,114.1507746,32.92334957
133,22.0,40.0,5174.0,80.0,111.0,1273.0,669.0,925.0,大庆市,230600,124.69979009999999,46.34702605
134,33.0,31.0,3003.0,226.0,22.0,65.0,773.0,713.0,大兴安岭地区,232700,124.20360579999999,52.32603701
135,267.0,422.0,23254.0,1799.0,1107.0,1318.0,11234.0,7438.0,哈尔滨市,230100,127.95762739999999,45.63734134
136,8.0,10.0,1308.0,69.0,2.0,129.0,460.0,322.0,鹤岗市,230400,130.8005037,47.63981162
137,49.0,71.0,5730.0,220.0,127.0,233.0,1028.0,1392.0,黑河市,231100,126.98607450000002,49.263095899999996
138,260.0,99.0,20918.0,611.0,1498.0,544.0,7990.0,10683.0,鸡西市,230300,132.285896,45.62897775
139,47.0,26.0,7687.0,323.0,69.0,435.0,1431.0,4346.0,佳木斯市,230800,132.18289620000002,47.23461551
140,120.0,23.0,11108.0,978.0,263.0,454.0,3712.0,7012.0,牡丹江市,231000,129.88909990000002,44.59628918
141,14.0,51.0,1490.0,134.0,51.0,148.0,485.0,3996.0,七台河市,230900,130.9359208,45.87901406
142,103.0,86.0,9180.0,398.0,55.0,1309.0,1360.0,859.0,齐齐哈尔市,230200,124.54560959999999,47.69965019
143,12.0,21.0,3604.0,119.0,14.0,324.0,872.0,689.0,双鸭山市,230500,132.6111707,46.71508255
144,21.0,65.0,4311.0,229.0,35.0,336.0,2071.0,429.0,绥化市,231200,126.6459385,46.89375533
145,35.0,9.0,2049.0,255.0,7.0,246.0,365.0,183.0,伊春市,230700,129.2123818,47.81302224
146,28.0,59.0,2007.0,179.0,12.0,32.0,71.0,47.0,鄂州市,420700,114.75423130000001,30.32898334
147,19.0,65.0,6277.0,419.0,68.0,711.0,932.0,373.0,恩施土家族苗族自治州,422800,109.5494179,30.191518199999997
148,51.0,476.0,20086.0,612.0,60.0,11627.0,1737.0,4276.0,黄冈市,421100,115.33974340000002,30.7160935
149,28.0,110.0,4757.0,301.0,9.0,67.0,581.0,197.0,黄石市,420200,115.02476170000001,29.92757327
150,25.0,68.0,4235.0,256.0,93.0,114.0,388.0,366.0,荆门市,420800,112.6086664,31.07051949
151,94.0,273.0,5840.0,113.0,51.0,122.0,187.0,728.0,荆州市,421000,112.56961909999998,29.99684859
152,2.0,4.0,1338.0,28.0,6.0,21.0,26.0,44.0,潜江市,429005,112.7567307,30.33911988
153,2.0,9.0,504.0,1.0,21.0,24.0,35.0,41.0,神农架林区,429021,110.47551259999999,31.59150052
154,24.0,65.0,6851.0,729.0,49.0,255.0,469.0,1043.0,十堰市,420300,110.4412744,32.45660458
155,19.0,56.0,2575.0,356.0,14.0,86.0,154.0,83.0,随州市,421300,113.42430209999999,31.82908064
156,4.0,7.0,788.0,99.0,2.0,28.0,107.0,8.0,天门市,429006,113.11146880000001,30.645230600000005
157,1444.0,620.0,42208.0,4588.0,1415.0,8433.0,5984.0,35578.0,武汉市,420100,114.3428771,30.62404986
158,3.0,4.0,1625.0,37.0,1.0,58.0,116.0,100.0,仙桃市,429004,113.37571940000001,30.28989812
159,18.0,108.0,3662.0,259.0,14.0,141.0,296.0,273.0,咸宁市,421200,114.1753416,29.62403688
160,242.0,355.0,15712.0,1566.0,492.0,197.0,2473.0,10139.0,襄阳市,420600,111.9366605,31.93192027
161,25.0,68.0,5843.0,465.0,66.0,221.0,666.0,1441.0,孝感市,420900,113.8790061,31.11818753
162,219.0,500.0,12619.0,723.0,291.0,341.0,1829.0,4437.0,宜昌市,420500,111.1352804,30.74743374
163,23.0,125.0,9570.0,505.0,69.0,358.0,491.0,685.0,常德市,430700,111.5196482,29.29994992
164,34.0,123.0,8438.0,744.0,78.0,624.0,1339.0,4135.0,郴州市,431000,113.13634850000001,25.81447244
165,47.0,119.0,13034.0,931.0,75.0,981.0,1412.0,4776.0,衡阳市,430400,112.57418600000001,26.79428249
166,95.0,114.0,8302.0,1629.0,48.0,954.0,652.0,1284.0,怀化市,431200,110.07512709999999,27.54817525
167,25.0,76.0,5385.0,906.0,61.0,315.0,1595.0,4701.0,娄底市,431300,111.6131102,27.73901201
168,23.0,188.0,7844.0,389.0,72.0,518.0,1128.0,700.0,邵阳市,430500,110.87446659999999,26.91332644
169,46.0,65.0,4671.0,568.0,1166.0,191.0,2632.0,7065.0,湘潭市,430300,112.6029037,27.73160662
170,38.0,90.0,4104.0,390.0,281.0,749.0,541.0,446.0,湘西土家族苗族自治州,433100,109.7270331,28.69487233
171,20.0,20.0,11532.0,373.0,64.0,436.0,248.0,3703.0,益阳市,430900,111.9513217,28.57523162
172,89.0,156.0,7616.0,336.0,40.0,510.0,973.0,700.0,永州市,431100,111.7293638,25.77353031
173,667.0,352.0,13175.0,776.0,122.0,476.0,2437.0,23682.0,岳阳市,430600,113.2543192,29.06636126
174,184.0,36.0,3199.0,300.0,600.0,284.0,284.0,2507.0,张家界市,430800,110.52663909999998,29.39245758
175,301.0,285.0,21914.0,1732.0,1816.0,390.0,8474.0,31065.0,长沙市,430100,113.15299650000001,28.22714474
176,98.0,66.0,9383.0,1339.0,164.0,322.0,835.0,1055.0,株洲市,430200,113.5173744,27.11883783
177,20.0,31.0,5263.0,172.0,31.0,422.0,568.0,165.0,白城市,220800,123.01180919999999,45.34651468
178,34.0,34.0,3667.0,256.0,174.0,273.0,1686.0,574.0,白山市,220600,127.2852846,42.0696094
179,141.0,48.0,18751.0,830.0,174.0,6024.0,1361.0,2279.0,吉林市,220200,126.8432804,43.57963456
180,9.0,32.0,2229.0,79.0,28.0,128.0,688.0,551.0,辽源市,220400,125.3054884,42.81082408
181,32.0,42.0,3444.0,247.0,25.0,223.0,1034.0,265.0,四平市,220300,124.3840929,43.48353182
182,24.0,35.0,4337.0,139.0,25.0,162.0,621.0,559.0,松原市,220700,124.47682649999999,44.80129882
183,37.0,51.0,5091.0,268.0,79.0,218.0,1788.0,1501.0,通化市,220500,125.9491578,41.95618238
184,107.0,113.0,10842.0,822.0,310.0,465.0,1732.0,4069.0,延边朝鲜族自治州,222400,129.1237276,43.14200003
185,207.0,490.0,21383.0,1298.0,710.0,344.0,4384.0,7176.0,长春市,220100,125.5838918,44.28310973
186,3357.0,455.0,28326.0,761.0,689.0,717.0,7905.0,23556.0,常州市,320400,119.63654240000001,31.62492091
187,56.0,38.0,7783.0,278.0,204.0,153.0,466.0,4491.0,淮安市,320800,118.9648612,33.35176089
188,60.0,127.0,23584.0,564.0,105.0,968.0,2326.0,10178.0,连云港市,320700,119.1397466,34.53595327
189,2194.0,777.0,32091.0,3448.0,2540.0,677.0,4422.0,24916.0,南京市,320100,118.84276559999999,31.92759114
190,4330.0,553.0,34123.0,581.0,1169.0,911.0,6391.0,39108.0,南通市,320600,121.04436820000001,32.18304405
191,2318.0,591.0,58715.0,1054.0,1721.0,948.0,7636.0,40510.0,苏州市,320500,120.65585959999999,31.38349196
192,785.0,768.0,35503.0,333.0,1036.0,975.0,4147.0,28295.0,宿迁市,321300,118.52019080000001,33.78423854
193,46.0,283.0,27862.0,184.0,202.0,131.0,2025.0,17525.0,泰州市,321200,120.0563571,32.57097365
194,227.0,415.0,40179.0,663.0,3160.0,162.0,2630.0,58909.0,无锡市,320200,120.0756925,31.52400065
195,202.0,132.0,11111.0,1115.0,263.0,95.0,1202.0,2807.0,徐州市,320300,117.51741329999999,34.35531783
196,59.0,71.0,14596.0,275.0,85.0,118.0,1193.0,8157.0,盐城市,320900,120.19486119999999,33.51415001
197,46.0,155.0,17931.0,203.0,96.0,103.0,2030.0,23323.0,扬州市,321000,119.47447199999999,32.73729539
198,326.0,305.0,13752.0,936.0,528.0,426.0,1841.0,58428.0,镇江市,321100,119.45292240000002,32.01570779
199,21.0,244.0,9331.0,541.0,220.0,1032.0,1626.0,301.0,抚州市,361000,116.43412920000002,27.51015051
200,211.0,685.0,28269.0,1677.0,348.0,2983.0,5345.0,10215.0,赣州市,360700,115.27303549999999,25.7088547
201,51.0,269.0,11436.0,773.0,266.0,1311.0,1367.0,738.0,吉安市,360800,114.82463940000001,26.97340935
202,26.0,45.0,6069.0,251.0,208.0,251.0,166.0,309.0,景德镇市,360200,117.2699557,29.30728248
203,76.0,527.0,12807.0,812.0,612.0,891.0,3299.0,5328.0,九江市,360400,115.4517472,29.32196637
204,2554.0,166.0,21071.0,1851.0,1921.0,4900.0,6158.0,13039.0,南昌市,360100,116.0185878,28.64979404
205,13.0,83.0,4327.0,273.0,64.0,206.0,500.0,182.0,萍乡市,360300,113.90274209999998,27.51265333
206,273.0,470.0,28430.0,1612.0,849.0,5963.0,2306.0,3646.0,上饶市,361100,117.4721679,28.77294759
207,17.0,49.0,2292.0,266.0,11.0,165.0,513.0,308.0,新余市,360500,114.85222900000001,27.84531515
208,43.0,278.0,11010.0,536.0,141.0,958.0,2198.0,349.0,宜春市,360900,114.9725719,28.30613949
209,18.0,91.0,6000.0,371.0,73.0,206.0,244.0,1521.0,鹰潭市,360600,117.1074392,28.22465069
210,96.0,61.0,9693.0,435.0,63.0,329.0,739.0,1630.0,鞍山市,210300,123.0126017,40.71323795
211,73.0,15.0,2576.0,1338.0,52.0,302.0,163.0,157.0,本溪市,210500,124.56838,41.22883231
212,52.0,25.0,2512.0,953.0,38.0,250.0,174.0,180.0,朝阳市,211300,120.01441709999999,41.51088259
213,690.0,244.0,23959.0,2048.0,867.0,2025.0,2348.0,27519.0,大连市,210200,122.1919051,39.58477196
214,52.0,78.0,3974.0,986.0,60.0,239.0,338.0,974.0,丹东市,210600,124.39739170000001,40.54000529
215,37.0,36.0,3002.0,219.0,55.0,351.0,124.0,1057.0,抚顺市,210400,124.65589990000001,41.83380977
216,23.0,28.0,1992.0,242.0,53.0,179.0,200.0,372.0,阜新市,210900,121.9551668,42.27925639
217,346.0,67.0,3768.0,635.0,134.0,265.0,376.0,547.0,葫芦岛市,211400,120.2048675,40.61720784
218,33.0,21.0,2998.0,660.0,127.0,184.0,299.0,1167.0,锦州市,210700,121.61242800000001,41.45877975
219,38.0,32.0,2762.0,354.0,33.0,145.0,137.0,630.0,辽阳市,211000,123.2457009,41.18178354
220,17.0,31.0,1613.0,222.0,42.0,99.0,296.0,287.0,盘锦市,211100,121.99403159999999,41.06596229
221,264.0,186.0,14487.0,2056.0,652.0,339.0,1258.0,4739.0,沈阳市,210100,123.1376608,42.09432213
222,27.0,41.0,3208.0,265.0,29.0,327.0,321.0,460.0,铁岭市,211200,124.1706602,42.64387946
223,18.0,38.0,2170.0,246.0,42.0,149.0,330.0,759.0,营口市,210800,122.4511902,40.38894659
224,60.0,168.0,7489.0,649.0,786.0,243.0,1783.0,2419.0,阿拉善盟,152900,102.44896440000001,40.49706802
225,40.0,49.0,6625.0,692.0,127.0,155.0,754.0,802.0,巴彦淖尔市,150800,107.5697088,41.44571973
226,41.0,52.0,8521.0,1796.0,120.0,329.0,682.0,3070.0,包头市,150200,110.2604084,41.54929817
227,96.0,30.0,19156.0,624.0,169.0,10648.0,3128.0,4993.0,赤峰市,150400,118.8709506,43.22042011
228,167.0,136.0,12028.0,2063.0,356.0,167.0,1454.0,4494.0,鄂尔多斯市,150600,108.6284617,39.41184161
229,105.0,68.0,9623.0,1171.0,448.0,214.0,1018.0,3450.0,呼和浩特市,150100,111.49798940000001,40.59109042
230,134.0,102.0,14476.0,812.0,402.0,574.0,2418.0,12670.0,呼伦贝尔市,150700,121.196017,49.66148768
231,60.0,30.0,12433.0,473.0,37.0,2398.0,880.0,2824.0,通辽市,150500,121.56993270000001,43.81587159
232,12.0,109.0,2697.0,415.0,136.0,38.0,808.0,1706.0,乌海市,150300,106.86970330000001,39.42534191
233,49.0,68.0,11952.0,835.0,419.0,6219.0,1113.0,3064.0,乌兰察布市,150900,112.44304450000001,41.68253941
234,121.0,77.0,7502.0,695.0,296.0,2892.0,748.0,5928.0,锡林郭勒盟,152500,115.4835227,44.1929266
235,36.0,36.0,4448.0,244.0,108.0,329.0,461.0,723.0,兴安盟,152200,121.33643719999999,46.22525709
236,53.0,100.0,4876.0,237.0,53.0,343.0,534.0,1606.0,固原市,640400,106.18072099999999,35.91474713
237,11.0,30.0,1803.0,137.0,72.0,65.0,392.0,1760.0,石嘴山市,640200,106.5124476,39.00628937
238,42.0,57.0,7341.0,549.0,630.0,181.0,648.0,4511.0,吴忠市,640300,106.52713500000002,37.46237905
239,294.0,68.0,7825.0,573.0,404.0,82.0,626.0,5611.0,银川市,640100,106.34357299999999,38.28572327
240,69.0,44.0,3557.0,385.0,95.0,209.0,233.0,649.0,中卫市,640500,105.5013166,37.01284548
241,1.0,16.0,3435.0,1e-06,93.0,97.0,334.0,2503.0,果洛藏族自治州,632600,99.42016633,34.11641147
242,14.0,26.0,4177.0,290.0,86.0,589.0,991.0,805.0,海北藏族自治州,632200,100.3035137,37.75825597
243,31.0,80.0,5710.0,234.0,94.0,1641.0,808.0,956.0,海东市,630200,102.3435064,36.33208032
244,10.0,66.0,3144.0,1e-06,133.0,220.0,429.0,1025.0,海南藏族自治州,632500,100.2567706,35.90029003
245,101.0,58.0,6813.0,1716.0,655.0,305.0,881.0,6874.0,海西蒙古族藏族自治州,632800,94.53120673,36.71257669
246,9.0,12.0,1844.0,1e-06,78.0,175.0,389.0,579.0,黄南藏族自治州,632300,101.6291753,35.02222884
247,102.0,43.0,5557.0,506.0,215.0,969.0,570.0,2593.0,西宁市,630100,101.4368998,36.82579654
248,15.0,6.0,6162.0,346.0,256.0,317.0,873.0,2166.0,玉树藏族自治州,632700,94.32138256,34.21110429
249,25.0,36.0,5474.0,230.0,27.0,106.0,875.0,395.0,滨州市,371600,117.84117490000001,37.53939145
250,27.0,36.0,10345.0,546.0,63.0,3977.0,885.0,804.0,德州市,371400,116.64721340000001,37.24829922
251,21.0,51.0,6524.0,278.0,39.0,40.0,550.0,1603.0,东营市,370500,118.63502240000001,37.63988761
252,81.0,147.0,12628.0,411.0,354.0,541.0,2506.0,6421.0,菏泽市,371700,115.69271509999999,35.15104507
253,6811.0,661.0,32588.0,2190.0,1265.0,1855.0,5112.0,11523.0,济南市,370100,117.2154615,36.63697278
254,196.0,78.0,10820.0,806.0,123.0,1054.0,2539.0,985.0,济宁市,370800,116.7355628,35.36937488
255,17.0,45.0,9723.0,477.0,57.0,881.0,1373.0,2891.0,聊城市,371500,115.88136999999999,36.45840727
256,207.0,416.0,39889.0,1421.0,356.0,1918.0,9968.0,8992.0,临沂市,371300,118.280571,35.30939882
257,484.0,333.0,33412.0,2096.0,1390.0,1595.0,5350.0,11942.0,青岛市,370200,120.14619109999998,36.44715886
258,14.0,104.0,6928.0,701.0,56.0,89.0,571.0,3400.0,日照市,371100,119.14121019999999,35.57786064
259,273.0,129.0,12313.0,730.0,586.0,1302.0,4392.0,2147.0,泰安市,370900,117.02515120000001,36.00172708
260,374.0,554.0,13615.0,204.0,411.0,261.0,1796.0,33000.0,威海市,371000,121.9956902,37.11742886
261,381.0,649.0,31013.0,1483.0,1188.0,1338.0,12442.0,11227.0,潍坊市,370700,119.0725905,36.55151791
262,62.0,256.0,12353.0,736.0,148.0,262.0,669.0,7627.0,烟台市,370600,120.79982240000001,37.24464008
263,124.0,184.0,10301.0,407.0,93.0,3058.0,1985.0,1240.0,枣庄市,370400,117.39280670000001,34.91610433
264,56.0,48.0,6205.0,1079.0,80.0,110.0,468.0,962.0,淄博市,370300,118.05325719999999,36.60786112
265,112.0,169.0,9158.0,735.0,1079.0,2504.0,1914.0,3204.0,大同市,140200,113.7192757,39.90042929
266,22.0,63.0,8713.0,451.0,59.0,438.0,1105.0,1390.0,晋城市,140500,112.70673700000002,35.61051272
267,91.0,100.0,12537.0,1377.0,226.0,814.0,2545.0,4941.0,晋中市,140700,112.9621265,37.32670067
268,34.0,60.0,7897.0,646.0,33.0,611.0,563.0,509.0,临汾市,141000,111.37667450000001,36.22673115
269,50.0,59.0,8789.0,1206.0,50.0,373.0,873.0,1377.0,吕梁市,141100,111.2626578,37.67870361
270,35.0,63.0,5916.0,469.0,906.0,1054.0,775.0,949.0,朔州市,140600,112.641554,39.61686303
271,212.0,209.0,17295.0,1691.0,464.0,284.0,797.0,4271.0,太原市,140100,112.31548020000001,37.95911563
272,83.0,106.0,10534.0,1315.0,1070.0,982.0,1172.0,1672.0,忻州市,140900,112.40868049999999,38.88214197
273,19.0,15.0,2912.0,458.0,29.0,213.0,286.0,161.0,阳泉市,140300,113.499385,38.06316904
274,40.0,63.0,16973.0,324.0,95.0,2667.0,2485.0,3287.0,运城市,140800,111.0659043,35.18753039
275,56.0,81.0,7780.0,833.0,274.0,820.0,704.0,308.0,长治市,140400,112.915697,36.47603248
276,57.0,50.0,6938.0,1167.0,24.0,1328.0,639.0,833.0,安康市,610900,108.9262447,32.75748098
277,220.0,52.0,17216.0,1472.0,345.0,702.0,2454.0,4641.0,宝鸡市,610300,107.2008116,34.37893087
278,69.0,77.0,14601.0,1171.0,157.0,691.0,1473.0,3234.0,汉中市,610700,107.1030498,33.09051251
279,22.0,49.0,5934.0,625.0,9.0,379.0,545.0,361.0,商洛市,611000,109.9010118,33.64788831
280,23.0,15.0,2392.0,233.0,10.0,100.0,328.0,205.0,铜川市,610200,109.03315549999999,35.1960268
281,94.0,55.0,8517.0,947.0,81.0,472.0,606.0,1261.0,渭南市,610500,109.8513244,34.94933878
282,1838.0,213.0,26263.0,1639.0,2592.0,443.0,3514.0,16579.0,西安市,610100,108.7916033,34.10705846
283,193.0,106.0,10522.0,574.0,156.0,314.0,1114.0,1713.0,咸阳市,610400,108.39017290000001,34.7849521
284,41.0,60.0,11500.0,1095.0,116.0,468.0,1277.0,2959.0,延安市,610600,109.31532790000001,36.43705706
285,164.0,347.0,14997.0,1628.0,1348.0,461.0,1563.0,4021.0,榆林市,610800,109.56597620000001,38.03854295
286,3204.0,1332.0,108559.0,4926.0,9712.0,387.0,12195.0,68944.0,上海市,310000,121.4841515,31.21193692
287,39.0,75.0,8851.0,1e-06,509.0,874.0,3002.0,3468.0,阿坝藏族羌族自治州,513200,102.6092624,32.40023992
288,46.0,144.0,7353.0,146.0,56.0,387.0,872.0,988.0,巴中市,511900,107.0374744,32.01714449
289,927.0,804.0,66302.0,3388.0,2123.0,817.0,8214.0,24375.0,成都市,510100,103.9295936,30.65358578
290,41.0,107.0,10571.0,1418.0,59.0,838.0,7332.0,3497.0,达州市,511700,107.6448077,31.36629677
291,36.0,87.0,9099.0,420.0,75.0,415.0,761.0,991.0,德阳市,510600,104.4348345,31.13004513
292,43.0,54.0,11389.0,1e-06,1308.0,1426.0,3722.0,2547.0,甘孜藏族自治州,513300,99.99732028,30.94882592
293,42.0,105.0,5032.0,233.0,37.0,252.0,5237.0,408.0,广安市,511600,106.6634436,30.42638264
294,160.0,212.0,11101.0,1124.0,75.0,639.0,1617.0,4789.0,广元市,510800,105.78234280000001,32.26219267
295,98.0,136.0,8080.0,486.0,211.0,505.0,1090.0,468.0,乐山市,511100,103.56947690000001,29.21582511
296,117.0,164.0,12751.0,729.0,215.0,1762.0,2921.0,2361.0,凉山彝族自治州,513400,102.0797068,27.88574294
297,168.0,275.0,12011.0,568.0,57.0,576.0,1404.0,649.0,泸州市,510500,105.66622009999999,28.43989127
298,21.0,135.0,7800.0,120.0,34.0,332.0,663.0,489.0,眉山市,511400,103.7521057,29.92686826
299,113.0,282.0,12759.0,449.0,321.0,989.0,2990.0,3730.0,绵阳市,510700,104.7029473,31.84913094
300,99.0,120.0,9685.0,474.0,58.0,578.0,2352.0,1218.0,南充市,511300,106.20373290000002,31.19573387
301,29.0,79.0,3503.0,400.0,4.0,162.0,448.0,708.0,内江市,511000,104.91110079999999,29.64070434
302,34.0,137.0,5778.0,544.0,69.0,215.0,625.0,2471.0,攀枝花市,510400,101.729351,26.80726962
303,29.0,96.0,4352.0,335.0,44.0,448.0,572.0,511.0,遂宁市,510900,105.4717433,30.63173886
304,18.0,80.0,7841.0,102.0,95.0,490.0,1372.0,1576.0,雅安市,511800,102.66268259999998,29.91315483
305,120.0,221.0,9108.0,557.0,206.0,884.0,1398.0,660.0,宜宾市,511500,104.6352507,28.57370624
306,37.0,112.0,5179.0,214.0,62.0,204.0,489.0,1954.0,资阳市,512000,105.1155222,30.10047257
307,227.0,464.0,8915.0,169.0,416.0,253.0,4153.0,7057.0,自贡市,510300,104.6828319,29.28680007
308,2.0,1e-06,1e-06,1e-06,1e-06,1e-06,1e-06,1e-06,台湾省,710000,120.9613219,23.74164595
309,2640.0,542.0,54341.0,3158.0,1553.0,2061.0,3791.0,48870.0,天津市,120000,117.341577,39.28377537
310,3.0,42.0,5109.0,1e-06,380.0,464.0,1126.0,5890.0,阿里地区,542500,82.5576254,33.03023451
311,6.0,21.0,5016.0,1e-06,263.0,694.0,1217.0,1699.0,昌都市,540300,97.03866125,30.77485008
312,24.0,81.0,6220.0,599.0,428.0,304.0,1171.0,5313.0,拉萨市,540100,91.08983076,30.03732204
313,9.0,27.0,5100.0,106.0,171.0,615.0,1737.0,5951.0,林芝市,540400,95.24222626,29.19477783
314,50.0,20.0,5236.0,430.0,106.0,782.0,820.0,2845.0,那曲市,540600,89.25764323,32.7364181
315,12.0,37.0,9234.0,238.0,317.0,1128.0,2297.0,13726.0,日喀则市,540200,86.48508281,29.49119206
316,13.0,34.0,4935.0,140.0,124.0,554.0,1989.0,4163.0,山南市,540500,92.26829765,28.30053635
317,8863.0,2146.0,123393.0,2031.0,16137.0,1748.0,35882.0,73537.0,香港特别行政区,810000,114.13405149999998,22.37585917
318,40.0,68.0,6045.0,299.0,214.0,215.0,686.0,789.0,阿克苏地区,652900,81.54861239,40.96246873
319,3.0,13.0,580.0,1e-06,118.0,32.0,430.0,174.0,阿拉尔市,659002,81.31426652,40.59961007
320,56.0,97.0,6718.0,121.0,279.0,297.0,653.0,3595.0,阿勒泰地区,654300,88.40471742,46.90696484
321,74.0,108.0,12606.0,1286.0,720.0,1269.0,2490.0,4901.0,巴音郭楞蒙古自治州,652800,87.46599626,39.49118948
322,1.0,5.0,590.0,47.0,16.0,51.0,37.0,411.0,北屯市,659005,87.9533151,47.24409572
323,18.0,31.0,2700.0,281.0,123.0,33.0,336.0,554.0,博尔塔拉蒙古自治州,652700,82.10450617,44.72849642
324,48.0,56.0,6848.0,280.0,300.0,165.0,930.0,3190.0,昌吉回族自治州,652300,88.63469305,44.34537993
325,72.0,91.0,4804.0,1031.0,234.0,309.0,714.0,4170.0,哈密市,650500,93.51478478,43.03902053
326,19.0,67.0,7544.0,146.0,222.0,457.0,1355.0,1760.0,和田地区,653200,80.92034052,37.07196936
327,2.0,8.0,326.0,8.0,8.0,65.0,12.0,20.0,胡杨河市,659010,84.78410368,44.84121023
328,58.0,74.0,13728.0,284.0,397.0,291.0,786.0,6332.0,喀什地区,653100,77.18565366,38.12784647
329,19.0,3.0,792.0,19.0,12.0,8.0,126.0,524.0,可克达拉市,659008,80.68478349,43.91619011
330,9.0,104.0,3270.0,239.0,117.0,34.0,278.0,3377.0,克拉玛依市,650200,85.20177411,45.49257577
331,7.0,21.0,2868.0,80.0,103.0,119.0,167.0,3816.0,克孜勒苏柯尔克孜自治州,653000,75.94469535,39.65549562
332,1.0,1.0,248.0,7.0,17.0,6.0,19.0,163.0,昆玉市,659009,79.02057264,37.47438194
333,38.0,13.0,1077.0,25.0,115.0,24.0,398.0,899.0,石河子市,659001,86.03558277,44.30553786
334,2.0,5.0,465.0,15.0,13.0,14.0,153.0,113.0,双河市,659007,82.35995107,44.87414296
335,24.0,75.0,7219.0,380.0,351.0,390.0,889.0,4236.0,塔城地区,654200,84.79133863,45.64115399
336,3.0,2.0,523.0,1e-06,97.0,8.0,140.0,169.0,铁门关市,659006,85.63722958,41.79844611
337,3.0,5.0,459.0,15.0,107.0,27.0,270.0,88.0,图木舒克市,659003,79.16129407,39.86972663
338,61.0,42.0,4264.0,710.0,351.0,527.0,793.0,1100.0,吐鲁番市,650400,89.82962783,42.38781724
339,372.0,168.0,12181.0,1385.0,989.0,393.0,2156.0,19416.0,乌鲁木齐市,650100,87.78095236,43.73150711
340,1e-06,1.0,404.0,1e-06,9.0,14.0,29.0,208.0,五家渠市,659004,87.55452236,44.36074215
341,40.0,111.0,14935.0,661.0,316.0,614.0,2097.0,12087.0,伊犁哈萨克自治州,654000,82.12384007,43.44638579
342,45.0,86.0,7589.0,1e-06,560.0,329.0,402.0,805.0,保山市,530500,98.97171094,24.97631107
343,68.0,175.0,10422.0,1103.0,141.0,598.0,722.0,1122.0,楚雄彝族自治州,532300,101.5680903,25.35205656
344,249.0,231.0,22830.0,673.0,3230.0,2549.0,1213.0,1845.0,大理白族自治州,532900,100.0391885,25.72801376
345,30.0,76.0,14310.0,1e-06,196.0,430.0,999.0,2382.0,德宏傣族景颇族自治州,533100,98.0849017,24.55904175
346,82.0,48.0,3929.0,1.0,909.0,444.0,387.0,669.0,迪庆藏族自治州,533400,99.43991782,27.95674408
347,208.0,113.0,11012.0,745.0,461.0,801.0,2033.0,1043.0,红河哈尼族彝族自治州,532500,103.03501779999999,23.43992745
348,750.0,369.0,26013.0,3009.0,2236.0,620.0,2697.0,4342.0,昆明市,530100,102.8727812,25.38683915
349,702.0,187.0,15174.0,79.0,742.0,4893.0,3677.0,19332.0,丽江市,530700,100.523957,26.94064927
350,28.0,102.0,5901.0,77.0,59.0,295.0,588.0,1158.0,临沧市,530900,99.67293182,23.93912954
351,12.0,7.0,1547.0,1e-06,80.0,258.0,324.0,397.0,怒江傈僳族自治州,533300,98.86955743,26.95909062
352,31.0,113.0,9030.0,150.0,213.0,378.0,1422.0,832.0,普洱市,530800,100.72021109999999,23.18638245
353,61.0,214.0,9713.0,1231.0,231.0,651.0,1930.0,1258.0,曲靖市,530300,103.9377706,25.7037554
354,31.0,103.0,9140.0,220.0,91.0,1311.0,1166.0,1253.0,文山壮族苗族自治州,532600,104.7136043,23.68968811
355,49.0,102.0,6406.0,201.0,262.0,324.0,741.0,3004.0,西双版纳傣族自治州,532800,100.9428653,21.93173858
356,38.0,152.0,7989.0,602.0,202.0,497.0,728.0,1512.0,玉溪市,530400,102.2020078,24.13966474
357,47.0,132.0,11537.0,363.0,65.0,660.0,1529.0,1523.0,昭通市,530600,104.00202990000001,27.65344012
358,4168.0,810.0,71268.0,4171.0,4778.0,4743.0,13957.0,48901.0,杭州市,330100,119.4708146,29.89986219
359,93.0,107.0,11228.0,401.0,250.0,264.0,1121.0,5822.0,湖州市,330500,119.8687764,30.74481198
360,260.0,205.0,31816.0,572.0,412.0,1302.0,1737.0,8001.0,嘉兴市,330400,120.7790269,30.62192563
361,246.0,208.0,24011.0,893.0,469.0,1086.0,3776.0,13742.0,金华市,330700,119.9522159,29.11710724
362,36.0,65.0,10825.0,567.0,213.0,1076.0,1815.0,1058.0,丽水市,331100,119.51202749999999,28.19927708
363,451.0,476.0,32876.0,802.0,1473.0,1003.0,2994.0,7980.0,宁波市,330200,121.4789837,29.73047805
364,115.0,557.0,37362.0,483.0,470.0,10267.0,6094.0,25850.0,衢州市,330800,118.6745398,28.93436702
365,118.0,122.0,16550.0,499.0,150.0,418.0,2459.0,2892.0,绍兴市,330600,120.63656040000001,29.734607699999998
366,80.0,233.0,22475.0,363.0,294.0,849.0,2753.0,18480.0,台州市,331000,121.1372207,28.75727043
367,198.0,294.0,36417.0,704.0,270.0,439.0,2908.0,5487.0,温州市,330300,120.46440630000001,27.89566818
368,47.0,183.0,5027.0,1e-06,182.0,157.0,1740.0,2594.0,舟山市,330900,122.18206740000001,30.1180369
369,1140.0,1537.0,98903.0,5759.0,1479.0,3073.0,13440.0,23735.0,重庆市,500000,107.87444599999999,30.05717028
