transport,traffic,roads,railway,poi,places,landuse,building,city_code,city,longitude,latitude
9.0,31.0,3669.0,83.0,76.0,191.0,383.0,737.0,340800,安庆市,116.4859918,30.57552958
32.0,25.0,2943.0,274.0,80.0,108.0,638.0,809.0,340300,蚌埠市,117.3247233,33.10928673
3.0,5.0,2591.0,36.0,11.0,423.0,96.0,55.0,341600,亳州市,116.1802003,33.43557233
6.0,20.0,1811.0,93.0,15.0,166.0,155.0,964.0,341700,池州市,117.3641746,30.28325848
109.0,94.0,5188.0,193.0,130.0,370.0,641.0,3517.0,341100,滁州市,118.1023333,32.54422643
128.0,14.0,8570.0,427.0,171.0,740.0,878.0,4429.0,341200,阜阳市,115.704106,32.91708517
1148.0,165.0,15728.0,454.0,433.0,1556.0,3312.0,5443.0,340100,合肥市,117.3550905,31.76262308
25.0,1.0,1272.0,131.0,9.0,62.0,60.0,103.0,340600,淮北市,116.7432627,33.72839774
406.0,28.0,5498.0,248.0,146.0,507.0,1278.0,1240.0,340400,淮南市,116.7680215,32.47255328
60.0,13.0,3991.0,81.0,588.0,986.0,175.0,246.0,341000,黄山市,118.0709463,29.90653054
12.0,31.0,4611.0,153.0,91.0,818.0,708.0,524.0,341500,六安市,116.2287615,31.6589212
12.0,27.0,3245.0,102.0,55.0,333.0,525.0,1261.0,340500,马鞍山市,118.3652036,31.63860487
7.0,15.0,2168.0,240.0,69.0,98.0,89.0,1612.0,341300,宿州市,117.2100079,33.85954517
41.0,2.0,1218.0,59.0,54.0,124.0,170.0,767.0,340700,铜陵市,117.5556273,30.88462337
76.0,81.0,4325.0,170.0,137.0,389.0,374.0,533.0,340200,芜湖市,118.1348385,31.16236504
6.0,33.0,3472.0,246.0,28.0,272.0,161.0,1092.0,341800,宣城市,118.8517787,30.68569806
584.0,90.0,7334.0,42.0,1291.0,48.0,962.0,5432.0,820000,澳门特别行政区,113.5621671,22.16290883
5548.0,1154.0,69666.0,5412.0,10306.0,1092.0,4780.0,57108.0,110000,北京市,116.4126385,40.18563339
272.0,188.0,14124.0,405.0,713.0,1587.0,1978.0,1436.0,350100,福州市,119.2020247,26.04786074
79.0,35.0,3859.0,427.0,95.0,203.0,222.0,985.0,350800,龙岩市,116.7389397,25.29315682
42.0,17.0,3959.0,418.0,58.0,646.0,497.0,304.0,350700,南平市,118.1420958,27.33944484
84.0,46.0,4844.0,118.0,308.0,1170.0,306.0,355.0,350900,宁德市,119.4905083,26.97080303
56.0,31.0,2793.0,75.0,129.0,190.0,1031.0,126.0,350300,莆田市,118.9011022,25.44334621
25.0,81.0,9237.0,423.0,385.0,628.0,1030.0,883.0,350500,泉州市,118.2648574,25.19265575
21.0,20.0,4303.0,221.0,53.0,302.0,192.0,1915.0,350400,三明市,117.3958118,26.29945447
479.0,105.0,9390.0,248.0,762.0,75.0,974.0,5406.0,350200,厦门市,118.1203398,24.66184087
21.0,43.0,12130.0,407.0,111.0,683.0,697.0,694.0,350600,漳州市,117.4538756,24.33173139
48.0,38.0,3832.0,268.0,149.0,1065.0,1637.0,1214.0,620400,白银市,104.6216216,36.61350215
25.0,68.0,6688.0,329.0,252.0,1469.0,2681.0,1892.0,621100,定西市,104.4529881,35.11963209
11.0,15.0,2711.0,1e-06,204.0,1045.0,582.0,718.0,623000,甘南藏族自治州,102.7645258,34.32153236
13.0,9.0,758.0,705.0,118.0,1.0,61.0,53.0,620200,嘉峪关市,98.21052423,39.82837139
1e-06,7.0,1084.0,385.0,16.0,98.0,51.0,167.0,620300,金昌市,102.0434659,38.43220687
54.0,40.0,5547.0,543.0,265.0,209.0,606.0,1501.0,620900,酒泉市,96.05604704,40.26035992
1144.0,138.0,15730.0,2081.0,1305.0,675.0,3954.0,20023.0,620100,兰州市,103.6380054,36.35519362
21.0,25.0,3340.0,62.0,142.0,654.0,903.0,1413.0,622900,临夏回族自治州,103.2873444,35.62419073
10.0,21.0,4497.0,228.0,45.0,2751.0,1352.0,583.0,621200,陇南市,105.2219039,33.59690725
16.0,28.0,3584.0,347.0,103.0,885.0,759.0,621.0,620800,平凉市,106.6479524,35.30587369
1.0,28.0,3393.0,8.0,84.0,550.0,347.0,106.0,621000,庆阳市,107.5905094,36.16249081
558.0,39.0,9551.0,745.0,446.0,1401.0,4165.0,2781.0,620500,天水市,105.7377839,34.64732994
15.0,13.0,3117.0,313.0,92.0,394.0,560.0,394.0,620600,武威市,103.0572447,38.17552027
18.0,32.0,3034.0,340.0,160.0,220.0,344.0,276.0,620700,张掖市,99.82270207,38.9557895
32.0,74.0,6790.0,102.0,264.0,904.0,776.0,1189.0,445100,潮州市,116.7855457,23.78554642
72.0,105.0,14909.0,421.0,174.0,585.0,804.0,1454.0,441900,东莞市,113.874986,22.9345278
590.0,94.0,26816.0,724.0,397.0,912.0,1843.0,3378.0,440600,佛山市,112.944453,23.00652761
8304.0,448.0,53981.0,2859.0,2405.0,528.0,3567.0,16531.0,440100,广州市,113.5390412,23.33085285
7.0,40.0,3130.0,556.0,10.0,1553.0,77.0,84.0,441600,河源市,114.9578225,24.04461582
41.0,99.0,8773.0,347.0,134.0,1458.0,330.0,1318.0,441300,惠州市,114.5027026,23.23510341
762.0,182.0,16017.0,90.0,942.0,2801.0,3016.0,1757.0,440700,江门市,112.6725521,22.26739023
4.0,29.0,3051.0,134.0,42.0,1475.0,356.0,960.0,445200,揭阳市,116.1197969,23.33613639
12.0,28.0,4059.0,235.0,50.0,2862.0,288.0,236.0,440900,茂名市,110.9534848,22.01009072
16.0,39.0,4026.0,240.0,18.0,2384.0,108.0,133.0,441400,梅州市,116.0794106,24.20307298
764.0,91.0,10084.0,450.0,250.0,1951.0,1738.0,916.0,441800,清远市,112.8749874,24.31430554
261.0,104.0,6098.0,80.0,187.0,631.0,1124.0,6237.0,440500,汕头市,116.5955695,23.33031228
4.0,32.0,2750.0,148.0,11.0,981.0,154.0,326.0,441500,汕尾市,115.5889047,22.875304
35.0,53.0,3276.0,608.0,88.0,1520.0,184.0,221.0,440200,韶关市,113.7745134,24.82036632
1307.0,481.0,31214.0,928.0,1698.0,309.0,2270.0,18285.0,440300,深圳市,114.1371684,22.64531697
12.0,55.0,3015.0,80.0,54.0,1426.0,540.0,91.0,441700,阳江市,111.7745686,22.02781209
68.0,29.0,3761.0,419.0,369.0,1275.0,577.0,3085.0,445300,云浮市,111.7936589,22.81603286
27.0,84.0,6955.0,215.0,76.0,3486.0,589.0,2507.0,440800,湛江市,110.1649401,21.07534974
56.0,38.0,5660.0,717.0,90.0,2012.0,360.0,268.0,441200,肇庆市,112.2053303,23.53770546
444.0,71.0,11593.0,81.0,191.0,589.0,948.0,11578.0,442000,中山市,113.393566,22.51990101
2849.0,146.0,10041.0,94.0,347.0,267.0,1021.0,2380.0,440400,珠海市,113.3622223,22.15191816
41.0,76.0,5645.0,450.0,10.0,1736.0,1383.0,309.0,451000,百色市,106.2877601,23.98527037
16.0,17.0,1770.0,74.0,89.0,61.0,188.0,762.0,450500,北海市,109.3376846,21.66203636
14.0,18.0,1951.0,25.0,22.0,324.0,323.0,50.0,451400,崇左市,107.2738385,22.50297143
8.0,27.0,1892.0,106.0,28.0,69.0,238.0,427.0,450600,防城港市,108.0128443,21.87172979
6.0,46.0,1635.0,111.0,7.0,641.0,453.0,65.0,450800,贵港市,109.9984528,23.30907478
341.0,163.0,11143.0,452.0,791.0,1534.0,1856.0,1862.0,450300,桂林市,110.5132367,25.35528295
6.0,66.0,4410.0,256.0,35.0,855.0,1029.0,156.0,451200,河池市,107.841961,24.64294762
10.0,12.0,1400.0,59.0,60.0,88.0,143.0,64.0,451100,贺州市,111.3608713,24.35975362
6.0,41.0,1885.0,89.0,14.0,917.0,238.0,61.0,451300,来宾市,109.4121719,23.85392639
136.0,109.0,5093.0,621.0,53.0,684.0,919.0,971.0,450200,柳州市,109.3708449,24.94742713
76.0,121.0,6122.0,871.0,109.0,1051.0,627.0,454.0,450100,南宁市,108.4636676,23.05718804
5.0,57.0,2025.0,378.0,24.0,342.0,160.0,261.0,450700,钦州市,109.0157732,22.17366078
6.0,18.0,1997.0,429.0,11.0,274.0,1954.0,131.0,450400,梧州市,110.9904289,23.48093816
17.0,28.0,2207.0,237.0,11.0,306.0,188.0,85.0,450900,玉林市,110.1823954,22.44219175
51.0,24.0,2436.0,217.0,32.0,477.0,197.0,97.0,520400,安顺市,105.9493348,25.99552444
42.0,47.0,7503.0,387.0,22.0,1463.0,769.0,992.0,520500,毕节市,105.2146574,27.06746399
123.0,55.0,7564.0,1251.0,94.0,215.0,288.0,402.0,520100,贵阳市,106.7069334,26.84251645
37.0,29.0,3704.0,1195.0,39.0,469.0,934.0,330.0,520200,六盘水市,104.8913314,26.13609994
23.0,44.0,5294.0,833.0,127.0,1891.0,1620.0,92.0,522600,黔东南苗族侗族自治州,108.5575013,26.50558057
29.0,63.0,5663.0,835.0,103.0,629.0,2646.0,124.0,522700,黔南布依族苗族自治州,107.2502757,26.01382412
10.0,44.0,4061.0,190.0,48.0,973.0,676.0,106.0,522300,黔西南布依族苗族自治州,105.4641868,25.26539889
11.0,44.0,3867.0,259.0,20.0,840.0,420.0,181.0,520600,铜仁市,108.5420469,27.97107267
146.0,112.0,9278.0,149.0,661.0,823.0,1438.0,1003.0,520300,遵义市,107.0853274,28.16883808
1e-06,14.0,232.0,2.0,3.0,61.0,49.0,15.0,469025,白沙黎族自治县,109.3476773,19.21145365
1.0,10.0,262.0,1e-06,17.0,12.0,99.0,12.0,469029,保亭黎族苗族自治县,109.646611,18.59140998
1.0,4.0,382.0,19.0,2.0,17.0,39.0,35.0,469026,昌江黎族自治县,108.9898588,19.22749548
2.0,15.0,1100.0,73.0,62.0,39.0,494.0,51.0,469023,澄迈县,109.986141,19.70182656
3.0,12.0,1574.0,105.0,63.0,77.0,736.0,168.0,460400,儋州市,109.3862008,19.58191678
1e-06,15.0,498.0,1e-06,15.0,30.0,290.0,17.0,469021,定安县,110.3086113,19.48500595
2.0,10.0,624.0,98.0,4.0,20.0,46.0,68.0,469007,东方市,108.8150292,18.99781225
84.0,57.0,5012.0,141.0,374.0,51.0,1975.0,939.0,460100,海口市,110.4187058,19.85391516
3.0,25.0,531.0,55.0,43.0,24.0,151.0,25.0,469027,乐东黎族自治县,109.0256627,18.64142024
1.0,5.0,586.0,13.0,57.0,17.0,636.0,13.0,469024,临高县,109.7114152,19.81166656
12.0,16.0,1277.0,58.0,62.0,44.0,331.0,140.0,469028,陵水黎族自治县,109.9472495,18.55120847
24.0,22.0,557.0,64.0,19.0,23.0,142.0,36.0,469002,琼海市,110.4176137,19.21199099
1e-06,4.0,518.0,1e-06,5.0,40.0,82.0,114.0,469030,琼中黎族苗族自治县,109.8504045,19.03552648
1.0,2.0,167.0,1e-06,29.0,6.0,41.0,361.0,460300,三沙市,113.6749089,9.826371128
351.0,69.0,3396.0,257.0,972.0,36.0,587.0,9475.0,460200,三亚市,109.4176502,18.363836
1e-06,15.0,536.0,1e-06,27.0,77.0,197.0,118.0,469022,屯昌县,110.0515501,19.34385258
9.0,14.0,687.0,144.0,29.0,34.0,26.0,28.0,469006,万宁市,110.3202202,18.83201297
3.0,31.0,1464.0,145.0,23.0,23.0,270.0,114.0,469005,文昌市,110.7843123,19.7491203
2.0,4.0,257.0,1e-06,4.0,21.0,72.0,5.0,469001,五指山市,109.5077013,18.8257064
301.0,84.0,14746.0,496.0,841.0,561.0,1222.0,4721.0,130600,保定市,115.1711311,39.0215841
36.0,40.0,19529.0,554.0,15.0,277.0,987.0,15172.0,130900,沧州市,116.765643,38.26868205
77.0,46.0,5429.0,1217.0,393.0,439.0,660.0,1981.0,130800,承德市,117.5470245,41.34722488
45.0,15.0,12421.0,392.0,20.0,264.0,634.0,3068.0,130400,邯郸市,114.5429506,36.55244711
25.0,18.0,6640.0,149.0,5.0,200.0,321.0,2673.0,131100,衡水市,115.8228812,37.76257514
30.0,20.0,6387.0,227.0,68.0,121.0,408.0,3365.0,131000,廊坊市,116.6282057,39.2593697
180.0,58.0,4092.0,734.0,598.0,33.0,614.0,6445.0,130300,秦皇岛市,119.1874201,40.0852429
98.0,65.0,22103.0,1025.0,201.0,337.0,2347.0,4460.0,130100,石家庄市,114.4394938,38.13053735
69.0,108.0,12737.0,1526.0,661.0,203.0,1906.0,4044.0,130200,唐山市,118.3323049,39.70886152
30.0,11.0,17843.0,218.0,56.0,219.0,1037.0,7548.0,130500,邢台市,114.8166568,37.2122495
272.0,80.0,12734.0,1095.0,2225.0,4695.0,5630.0,2318.0,130700,张家口市,115.0318418,40.86491896
18.0,18.0,2333.0,177.0,27.0,131.0,106.0,16.0,410500,安阳市,114.3535494,35.87703964
7.0,1.0,856.0,40.0,13.0,26.0,13.0,42.0,410600,鹤壁市,114.30933,35.72306663
5.0,1.0,478.0,91.0,1.0,9.0,15.0,1e-06,419001,济源市,112.3924557,35.09959215
10.0,4.0,2002.0,227.0,10.0,48.0,43.0,114.0,410800,焦作市,113.1318127,35.11257246
16.0,17.0,2925.0,14.0,35.0,68.0,143.0,142.0,410200,开封市,114.5353871,34.60479893
239.0,318.0,11030.0,481.0,182.0,234.0,1658.0,20292.0,410300,洛阳市,112.03177,34.29236569
2.0,2.0,1023.0,42.0,7.0,210.0,39.0,28.0,411100,漯河市,113.8996543,33.6556501
24.0,17.0,5242.0,686.0,77.0,131.0,134.0,234.0,411300,南阳市,112.2834582,33.04421864
636.0,40.0,3719.0,418.0,391.0,572.0,560.0,574.0,410400,平顶山市,113.0109485,33.79587441
4.0,4.0,1875.0,95.0,42.0,46.0,193.0,130.0,410900,濮阳市,115.2816646,35.80874277
32.0,10.0,1884.0,400.0,10.0,61.0,147.0,17.0,411200,三门峡市,111.1060472,34.36107505
6.0,10.0,3143.0,57.0,5.0,535.0,154.0,196.0,411400,商丘市,115.6975978,34.2891748
13.0,14.0,3590.0,125.0,147.0,172.0,260.0,157.0,410700,新乡市,114.0894418,35.26381432
59.0,83.0,6994.0,505.0,354.0,179.0,482.0,2297.0,411500,信阳市,114.8835408,32.08132574
7.0,1.0,2627.0,113.0,17.0,152.0,92.0,293.0,411000,许昌市,113.7096892,34.07234436
114.0,69.0,10792.0,1251.0,167.0,67.0,346.0,5150.0,410100,郑州市,113.4726362,34.6255035
1.0,8.0,4733.0,41.0,20.0,460.0,302.0,120.0,411600,周口市,114.8776668,33.72195465
8.0,35.0,2944.0,62.0,67.0,208.0,70.0,144.0,411700,驻马店市,114.1507746,32.92334957
21.0,17.0,2302.0,43.0,63.0,66.0,66.0,569.0,230600,大庆市,124.6997901,46.34702605
24.0,2.0,1174.0,79.0,12.0,42.0,309.0,478.0,232700,大兴安岭地区,124.2036058,52.32603701
149.0,169.0,11034.0,1040.0,258.0,400.0,3284.0,3911.0,230100,哈尔滨市,127.9576274,45.63734134
6.0,1.0,776.0,47.0,2.0,89.0,160.0,233.0,230400,鹤岗市,130.8005037,47.63981162
33.0,29.0,3002.0,119.0,102.0,141.0,446.0,1071.0,231100,黑河市,126.9860745,49.2630959
164.0,24.0,14505.0,373.0,696.0,423.0,3795.0,4832.0,230300,鸡西市,132.285896,45.62897775
40.0,11.0,6440.0,262.0,58.0,392.0,851.0,4189.0,230800,佳木斯市,132.1828962,47.23461551
111.0,11.0,8858.0,863.0,205.0,411.0,2175.0,942.0,231000,牡丹江市,129.8890999,44.59628918
13.0,28.0,1401.0,65.0,32.0,87.0,201.0,752.0,230900,七台河市,130.9359208,45.87901406
47.0,24.0,2843.0,280.0,24.0,263.0,255.0,150.0,230200,齐齐哈尔市,124.5456096,47.69965019
11.0,6.0,2437.0,85.0,9.0,269.0,361.0,69.0,230500,双鸭山市,132.6111707,46.71508255
21.0,9.0,952.0,85.0,5.0,62.0,122.0,9.0,231200,绥化市,126.6459385,46.89375533
36.0,3.0,1512.0,172.0,1e-06,89.0,141.0,9.0,230700,伊春市,129.2123818,47.81302224
27.0,1e-06,809.0,73.0,5.0,33.0,44.0,35.0,420700,鄂州市,114.7542313,30.32898334
19.0,27.0,3486.0,210.0,89.0,692.0,771.0,112.0,422800,恩施土家族苗族自治州,109.5494179,30.1915182
21.0,82.0,4948.0,239.0,56.0,279.0,292.0,238.0,421100,黄冈市,115.3397434,30.7160935
20.0,3.0,1261.0,110.0,7.0,65.0,93.0,12.0,420200,黄石市,115.0247617,29.92757327
7.0,34.0,1761.0,119.0,33.0,114.0,293.0,158.0,420800,荆门市,112.6086664,31.07051949
74.0,25.0,3157.0,64.0,40.0,119.0,144.0,332.0,421000,荆州市,112.5696191,29.99684859
2.0,1e-06,397.0,9.0,5.0,19.0,6.0,1e-06,429005,潜江市,112.7567307,30.33911988
2.0,7.0,295.0,1e-06,21.0,24.0,28.0,21.0,429021,神农架林区,110.4755126,31.59150052
19.0,53.0,5463.0,610.0,49.0,252.0,353.0,750.0,420300,十堰市,110.4412744,32.45660458
8.0,33.0,1698.0,206.0,11.0,69.0,91.0,51.0,421300,随州市,113.4243021,31.82908064
3.0,2.0,375.0,5.0,2.0,28.0,78.0,3.0,429006,天门市,113.1114688,30.6452306
1324.0,171.0,21083.0,2434.0,1205.0,224.0,2891.0,19756.0,420100,武汉市,114.3428771,30.62404986
1.0,1e-06,620.0,1.0,1.0,20.0,8.0,33.0,429004,仙桃市,113.3757194,30.28989812
11.0,15.0,2039.0,96.0,8.0,134.0,36.0,48.0,421200,咸宁市,114.1753416,29.62403688
15.0,77.0,3883.0,1078.0,18.0,185.0,519.0,216.0,420600,襄阳市,111.9366605,31.93192027
16.0,48.0,3317.0,200.0,42.0,225.0,472.0,1153.0,420900,孝感市,113.8790061,31.11818753
44.0,79.0,5151.0,469.0,231.0,288.0,302.0,1478.0,420500,宜昌市,111.1352804,30.74743374
10.0,88.0,5425.0,348.0,53.0,310.0,280.0,229.0,430700,常德市,111.5196482,29.29994992
20.0,61.0,4594.0,256.0,31.0,525.0,443.0,181.0,431000,郴州市,113.1363485,25.81447244
30.0,71.0,6024.0,412.0,44.0,296.0,366.0,271.0,430400,衡阳市,112.574186,26.79428249
28.0,83.0,5534.0,945.0,24.0,874.0,411.0,349.0,431200,怀化市,110.0751271,27.54817525
6.0,46.0,3104.0,341.0,10.0,248.0,232.0,243.0,431300,娄底市,111.6131102,27.73901201
14.0,139.0,5744.0,144.0,29.0,478.0,835.0,381.0,430500,邵阳市,110.8744666,26.91332644
16.0,44.0,2702.0,287.0,174.0,178.0,586.0,1928.0,430300,湘潭市,112.6029037,27.73160662
18.0,59.0,2626.0,91.0,83.0,614.0,280.0,47.0,433100,湘西土家族苗族自治州,109.7270331,28.69487233
11.0,9.0,5869.0,325.0,46.0,388.0,170.0,3224.0,430900,益阳市,111.9513217,28.57523162
11.0,56.0,4196.0,139.0,21.0,339.0,342.0,158.0,431100,永州市,111.7293638,25.77353031
27.0,169.0,6022.0,343.0,43.0,277.0,1970.0,23289.0,430600,岳阳市,113.2543192,29.06636126
176.0,18.0,2204.0,192.0,362.0,249.0,199.0,140.0,430800,张家界市,110.5266391,29.39245758
168.0,158.0,14278.0,1314.0,812.0,245.0,7450.0,28550.0,430100,长沙市,113.1529965,28.22714474
48.0,46.0,5095.0,1012.0,23.0,257.0,332.0,757.0,430200,株洲市,113.5173744,27.11883783
21.0,9.0,2382.0,48.0,3.0,86.0,143.0,74.0,220800,白城市,123.0118092,45.34651468
29.0,5.0,1703.0,139.0,21.0,192.0,278.0,90.0,220600,白山市,127.2852846,42.0696094
61.0,30.0,16600.0,413.0,151.0,5948.0,676.0,1493.0,220200,吉林市,126.8432804,43.57963456
8.0,8.0,852.0,56.0,6.0,52.0,72.0,243.0,220400,辽源市,125.3054884,42.81082408
12.0,6.0,1767.0,179.0,17.0,186.0,803.0,68.0,220300,四平市,124.3840929,43.48353182
23.0,6.0,1586.0,49.0,5.0,40.0,155.0,336.0,220700,松原市,124.4768265,44.80129882
30.0,13.0,2118.0,205.0,18.0,134.0,386.0,220.0,220500,通化市,125.9491578,41.95618238
54.0,15.0,4441.0,278.0,181.0,351.0,1069.0,1135.0,222400,延边朝鲜族自治州,129.1237276,43.14200003
155.0,209.0,12968.0,839.0,383.0,81.0,1721.0,4208.0,220100,长春市,125.5838918,44.28310973
389.0,92.0,10928.0,318.0,91.0,350.0,2972.0,13713.0,320400,常州市,119.6365424,31.62492091
35.0,24.0,6106.0,216.0,167.0,119.0,313.0,4109.0,320800,淮安市,118.9648612,33.35176089
11.0,28.0,5243.0,78.0,17.0,51.0,118.0,1722.0,320700,连云港市,119.1397466,34.53595327
1658.0,309.0,21940.0,1873.0,1668.0,235.0,2071.0,12572.0,320100,南京市,118.8427656,31.92759114
3858.0,282.0,22757.0,153.0,1092.0,641.0,5263.0,41773.0,320600,南通市,121.0443682,32.18304405
1008.0,178.0,32787.0,516.0,1077.0,390.0,3490.0,28802.0,320500,苏州市,120.6558596,31.38349196
7.0,24.0,5174.0,255.0,98.0,98.0,415.0,3015.0,321300,宿迁市,118.5201908,33.78423854
5.0,76.0,18300.0,134.0,136.0,114.0,1548.0,17375.0,321200,泰州市,120.0563571,32.57097365
159.0,121.0,19997.0,404.0,421.0,72.0,1008.0,17294.0,320200,无锡市,120.0756925,31.52400065
67.0,44.0,5842.0,302.0,199.0,53.0,369.0,1727.0,320300,徐州市,117.5174133,34.35531783
51.0,52.0,10109.0,134.0,17.0,89.0,475.0,6382.0,320900,盐城市,120.1948612,33.51415001
41.0,40.0,14698.0,55.0,83.0,96.0,1644.0,22571.0,321000,扬州市,119.474472,32.73729539
122.0,51.0,9469.0,736.0,429.0,144.0,807.0,57587.0,321100,镇江市,119.4529224,32.01570779
24.0,29.0,2276.0,256.0,147.0,475.0,95.0,66.0,361000,抚州市,116.4341292,27.51015051
138.0,38.0,10172.0,480.0,170.0,595.0,698.0,1137.0,360700,赣州市,115.2730355,25.7088547
43.0,14.0,2841.0,153.0,175.0,498.0,98.0,183.0,360800,吉安市,114.8246394,26.97340935
20.0,13.0,2137.0,122.0,36.0,157.0,36.0,109.0,360200,景德镇市,117.2699557,29.30728248
60.0,51.0,4654.0,415.0,441.0,486.0,14762.0,1100.0,360400,九江市,115.4517472,29.32196637
2378.0,125.0,13510.0,1291.0,1805.0,4535.0,5005.0,12406.0,360100,南昌市,116.0185878,28.64979404
11.0,4.0,908.0,126.0,57.0,92.0,12.0,57.0,360300,萍乡市,113.9027421,27.51265333
113.0,102.0,7658.0,477.0,415.0,4362.0,172.0,1914.0,361100,上饶市,117.4721679,28.77294759
9.0,2.0,767.0,56.0,10.0,72.0,73.0,37.0,360500,新余市,114.852229,27.84531515
29.0,16.0,3419.0,166.0,123.0,525.0,2472.0,70.0,360900,宜春市,114.9725719,28.30613949
22.0,5.0,976.0,140.0,64.0,141.0,18.0,17.0,360600,鹰潭市,117.1074392,28.22465069
22.0,5.0,2129.0,227.0,18.0,131.0,58.0,260.0,210300,鞍山市,123.0126017,40.71323795
27.0,4.0,1283.0,177.0,33.0,218.0,81.0,46.0,210500,本溪市,124.56838,41.22883231
34.0,10.0,1763.0,133.0,28.0,173.0,53.0,71.0,211300,朝阳市,120.0144171,41.51088259
283.0,95.0,12692.0,1318.0,582.0,673.0,1178.0,23078.0,210200,大连市,122.1919051,39.58477196
46.0,15.0,3237.0,419.0,52.0,204.0,157.0,502.0,210600,丹东市,124.3973917,40.54000529
9.0,10.0,1876.0,86.0,54.0,229.0,26.0,216.0,210400,抚顺市,124.6558999,41.83380977
13.0,21.0,1282.0,139.0,33.0,149.0,62.0,153.0,210900,阜新市,121.9551668,42.27925639
28.0,25.0,2234.0,337.0,82.0,175.0,232.0,242.0,211400,葫芦岛市,120.2048675,40.61720784
29.0,11.0,1761.0,176.0,117.0,139.0,226.0,151.0,210700,锦州市,121.612428,41.45877975
10.0,9.0,1471.0,138.0,22.0,92.0,91.0,300.0,211000,辽阳市,123.2457009,41.18178354
6.0,9.0,1341.0,163.0,17.0,44.0,333.0,182.0,211100,盘锦市,121.9940316,41.06596229
188.0,61.0,11183.0,1627.0,545.0,226.0,506.0,3170.0,210100,沈阳市,123.1376608,42.09432213
16.0,17.0,1618.0,130.0,23.0,172.0,88.0,292.0,211200,铁岭市,124.1706602,42.64387946
7.0,9.0,1671.0,92.0,46.0,94.0,318.0,104.0,210800,营口市,122.4511902,40.38894659
15.0,79.0,5149.0,607.0,357.0,58.0,866.0,1871.0,152900,阿拉善盟,102.4489644,40.49706802
33.0,21.0,5330.0,509.0,106.0,76.0,382.0,497.0,150800,巴彦淖尔市,107.5697088,41.44571973
38.0,28.0,7841.0,812.0,120.0,111.0,557.0,2733.0,150200,包头市,110.2604084,41.54929817
65.0,15.0,11778.0,520.0,110.0,494.0,1279.0,2887.0,150400,赤峰市,118.8709506,43.22042011
113.0,52.0,8861.0,1573.0,176.0,113.0,912.0,1776.0,150600,鄂尔多斯市,108.6284617,39.41184161
41.0,29.0,7513.0,400.0,404.0,116.0,602.0,2515.0,150100,呼和浩特市,111.4979894,40.59109042
110.0,47.0,7571.0,674.0,313.0,259.0,654.0,9814.0,150700,呼伦贝尔市,121.196017,49.66148768
47.0,12.0,8826.0,251.0,23.0,188.0,545.0,1164.0,150500,通辽市,121.5699327,43.81587159
9.0,80.0,2480.0,403.0,140.0,17.0,733.0,1640.0,150300,乌海市,106.8697033,39.42534191
42.0,17.0,9240.0,677.0,377.0,295.0,474.0,1909.0,150900,乌兰察布市,112.4430445,41.68253941
52.0,27.0,4048.0,527.0,245.0,162.0,354.0,2266.0,152500,锡林郭勒盟,115.4835227,44.1929266
32.0,9.0,2106.0,203.0,55.0,185.0,158.0,369.0,152200,兴安盟,121.3364372,46.22525709
10.0,88.0,3083.0,147.0,49.0,325.0,333.0,148.0,640400,固原市,106.180721,35.91474713
8.0,21.0,1113.0,120.0,57.0,54.0,282.0,1759.0,640200,石嘴山市,106.5124476,39.00628937
19.0,22.0,4922.0,262.0,614.0,134.0,186.0,4254.0,640300,吴忠市,106.527135,37.46237905
59.0,32.0,4117.0,311.0,215.0,75.0,171.0,3993.0,640100,银川市,106.343573,38.28572327
16.0,20.0,2116.0,298.0,83.0,184.0,149.0,314.0,640500,中卫市,105.5013166,37.01284548
1e-06,9.0,2568.0,1e-06,74.0,147.0,304.0,1782.0,632600,果洛藏族自治州,99.42016633,34.11641147
12.0,6.0,1574.0,271.0,69.0,80.0,498.0,337.0,632200,海北藏族自治州,100.3035137,37.75825597
14.0,38.0,3446.0,197.0,63.0,351.0,472.0,362.0,630200,海东市,102.3435064,36.33208032
1.0,16.0,2308.0,1e-06,68.0,228.0,374.0,929.0,632500,海南藏族自治州,100.2567706,35.90029003
79.0,14.0,4305.0,1287.0,415.0,154.0,510.0,6311.0,632800,海西蒙古族藏族自治州,94.53120673,36.71257669
4.0,5.0,1343.0,1e-06,70.0,183.0,343.0,167.0,632300,黄南藏族自治州,101.6291753,35.02222884
77.0,21.0,3698.0,402.0,160.0,113.0,416.0,1243.0,630100,西宁市,101.4368998,36.82579654
5.0,3.0,4392.0,322.0,177.0,377.0,763.0,1075.0,632700,玉树藏族自治州,94.32138256,34.21110429
5.0,16.0,3020.0,77.0,4.0,74.0,269.0,289.0,371600,滨州市,117.8411749,37.53939145
12.0,17.0,3324.0,234.0,7.0,64.0,250.0,180.0,371400,德州市,116.6472134,37.24829922
4.0,22.0,3263.0,58.0,38.0,36.0,317.0,1292.0,370500,东营市,118.6350224,37.63988761
41.0,115.0,6803.0,147.0,260.0,292.0,1463.0,2469.0,371700,菏泽市,115.6927151,35.15104507
1070.0,342.0,16170.0,1052.0,781.0,676.0,2930.0,5742.0,370100,济南市,117.2154615,36.63697278
123.0,36.0,5685.0,408.0,89.0,399.0,1723.0,199.0,370800,济宁市,116.7355628,35.36937488
4.0,4.0,2987.0,124.0,33.0,122.0,433.0,248.0,371500,聊城市,115.88137,36.45840727
94.0,336.0,27207.0,982.0,190.0,1725.0,5217.0,5169.0,371300,临沂市,118.280571,35.30939882
337.0,181.0,25763.0,876.0,1039.0,1539.0,4594.0,8747.0,370200,青岛市,120.1461911,36.44715886
4.0,44.0,3299.0,484.0,23.0,64.0,432.0,2866.0,371100,日照市,119.1412102,35.57786064
234.0,94.0,5680.0,435.0,321.0,165.0,2256.0,898.0,370900,泰安市,117.0251512,36.00172708
318.0,99.0,6693.0,197.0,165.0,147.0,578.0,14052.0,371000,威海市,121.9956902,37.11742886
150.0,188.0,12074.0,545.0,144.0,511.0,5713.0,1729.0,370700,潍坊市,119.0725905,36.55151791
36.0,85.0,7874.0,579.0,119.0,195.0,420.0,710.0,370600,烟台市,120.7998224,37.24464008
78.0,155.0,7139.0,223.0,76.0,1810.0,1032.0,717.0,370400,枣庄市,117.3928067,34.91610433
19.0,27.0,3575.0,427.0,52.0,81.0,234.0,272.0,370300,淄博市,118.0532572,36.60786112
59.0,39.0,5361.0,497.0,965.0,505.0,391.0,194.0,140200,大同市,113.7192757,39.90042929
14.0,39.0,4062.0,355.0,31.0,374.0,378.0,101.0,140500,晋城市,112.706737,35.61051272
51.0,54.0,6498.0,1014.0,191.0,534.0,544.0,159.0,140700,晋中市,112.9621265,37.32670067
35.0,40.0,5937.0,608.0,30.0,543.0,473.0,97.0,141000,临汾市,111.3766745,36.22673115
44.0,23.0,6702.0,1121.0,36.0,327.0,587.0,140.0,141100,吕梁市,111.2626578,37.67870361
17.0,27.0,3371.0,328.0,900.0,897.0,398.0,346.0,140600,朔州市,112.641554,39.61686303
40.0,35.0,6230.0,984.0,215.0,222.0,241.0,708.0,140100,太原市,112.3154802,37.95911563
62.0,50.0,7556.0,1105.0,1042.0,1011.0,797.0,145.0,140900,忻州市,112.4086805,38.88214197
6.0,3.0,2054.0,310.0,29.0,197.0,241.0,115.0,140300,阳泉市,113.499385,38.06316904
36.0,24.0,4489.0,243.0,72.0,375.0,365.0,387.0,140800,运城市,111.0659043,35.18753039
37.0,42.0,6374.0,563.0,252.0,787.0,576.0,179.0,140400,长治市,112.915697,36.47603248
37.0,34.0,5034.0,1062.0,6.0,246.0,563.0,104.0,610900,安康市,108.9262447,32.75748098
128.0,15.0,6019.0,1110.0,127.0,461.0,1057.0,207.0,610300,宝鸡市,107.2008116,34.37893087
52.0,53.0,7062.0,1078.0,122.0,402.0,595.0,309.0,610700,汉中市,107.1030498,33.09051251
25.0,44.0,5108.0,618.0,6.0,409.0,537.0,68.0,611000,商洛市,109.9010118,33.64788831
23.0,8.0,1940.0,230.0,10.0,85.0,285.0,15.0,610200,铜川市,109.0331555,35.1960268
83.0,24.0,4470.0,937.0,61.0,429.0,425.0,355.0,610500,渭南市,109.8513244,34.94933878
665.0,141.0,20265.0,1200.0,991.0,470.0,2172.0,8763.0,610100,西安市,108.7916033,34.10705846
36.0,40.0,6461.0,314.0,110.0,259.0,766.0,403.0,610400,咸阳市,108.3901729,34.7849521
27.0,36.0,7769.0,863.0,86.0,456.0,625.0,206.0,610600,延安市,109.3153279,36.43705706
53.0,185.0,9506.0,1289.0,1274.0,372.0,873.0,659.0,610800,榆林市,109.5659762,38.03854295
2162.0,712.0,76170.0,3335.0,5890.0,246.0,7306.0,35203.0,310000,上海市,121.4841515,31.21193692
38.0,50.0,6193.0,2.0,406.0,870.0,2730.0,1837.0,513200,阿坝藏族羌族自治州,102.6092624,32.40023992
4.0,22.0,2597.0,85.0,23.0,268.0,123.0,370.0,511900,巴中市,107.0374744,32.01714449
630.0,304.0,33811.0,1659.0,1558.0,537.0,3394.0,12746.0,510100,成都市,103.9295936,30.65358578
32.0,56.0,6219.0,1346.0,50.0,731.0,6820.0,1921.0,511700,达州市,107.6448077,31.36629677
13.0,16.0,2673.0,272.0,42.0,296.0,147.0,427.0,510600,德阳市,104.4348345,31.13004513
33.0,24.0,6046.0,1e-06,809.0,1042.0,1688.0,769.0,513300,甘孜藏族自治州,99.99732028,30.94882592
17.0,44.0,2361.0,199.0,19.0,121.0,4676.0,90.0,511600,广安市,106.6634436,30.42638264
16.0,55.0,3450.0,857.0,26.0,438.0,183.0,458.0,510800,广元市,105.7823428,32.26219267
84.0,41.0,3191.0,140.0,157.0,392.0,255.0,179.0,511100,乐山市,103.5694769,29.21582511
92.0,111.0,5546.0,477.0,104.0,1001.0,1097.0,1644.0,513400,凉山彝族自治州,102.0797068,27.88574294
146.0,81.0,5039.0,232.0,49.0,345.0,409.0,503.0,510500,泸州市,105.6662201,28.43989127
15.0,30.0,3402.0,35.0,15.0,252.0,31.0,402.0,511400,眉山市,103.7521057,29.92686826
69.0,119.0,5788.0,402.0,155.0,868.0,1777.0,668.0,510700,绵阳市,104.7029473,31.84913094
13.0,60.0,5409.0,429.0,32.0,380.0,1671.0,277.0,511300,南充市,106.2037329,31.19573387
12.0,12.0,1705.0,265.0,4.0,72.0,120.0,403.0,511000,内江市,104.9111008,29.64070434
28.0,56.0,3637.0,477.0,38.0,85.0,92.0,710.0,510400,攀枝花市,101.729351,26.80726962
22.0,28.0,2747.0,233.0,76.0,367.0,377.0,153.0,510900,遂宁市,105.4717433,30.63173886
7.0,27.0,3840.0,24.0,63.0,420.0,357.0,1502.0,511800,雅安市,102.6626826,29.91315483
39.0,27.0,3781.0,308.0,157.0,825.0,478.0,406.0,511500,宜宾市,104.6352507,28.57370624
2.0,16.0,1644.0,147.0,29.0,130.0,48.0,957.0,512000,资阳市,105.1155222,30.10047257
212.0,41.0,2540.0,42.0,132.0,196.0,1419.0,1500.0,510300,自贡市,104.6828319,29.28680007
2.0,1e-06,1e-06,1e-06,1e-06,1e-06,1e-06,1e-06,710000,台湾省,120.9613219,23.74164595
284.0,285.0,34126.0,2372.0,596.0,66.0,2279.0,31687.0,120000,天津市,117.341577,39.28377537
2.0,9.0,2671.0,1e-06,129.0,353.0,367.0,2912.0,542500,阿里地区,82.5576254,33.03023451
6.0,10.0,3049.0,1e-06,118.0,587.0,898.0,935.0,540300,昌都市,97.03866125,30.77485008
15.0,48.0,4037.0,512.0,208.0,266.0,645.0,3785.0,540100,拉萨市,91.08983076,30.03732204
10.0,21.0,2487.0,19.0,78.0,476.0,1253.0,3299.0,540400,林芝市,95.24222626,29.19477783
15.0,5.0,2816.0,357.0,80.0,505.0,753.0,1814.0,540600,那曲市,89.25764323,32.7364181
10.0,18.0,6891.0,224.0,189.0,1028.0,1508.0,4461.0,540200,日喀则市,86.48508281,29.49119206
6.0,14.0,3488.0,37.0,42.0,338.0,1484.0,3876.0,540500,山南市,92.26829765,28.30053635
7582.0,1300.0,78456.0,1779.0,13508.0,1641.0,12681.0,45942.0,810000,香港特别行政区,114.1340515,22.37585917
24.0,38.0,3776.0,239.0,112.0,215.0,237.0,544.0,652900,阿克苏地区,81.54861239,40.96246873
1.0,1e-06,249.0,1e-06,8.0,52.0,15.0,2.0,659002,阿拉尔市,81.31426652,40.59961007
31.0,65.0,4047.0,47.0,215.0,183.0,347.0,904.0,654300,阿勒泰地区,88.40471742,46.90696484
51.0,29.0,6560.0,1163.0,269.0,245.0,480.0,2524.0,652800,巴音郭楞蒙古自治州,87.46599626,39.49118948
1.0,2.0,348.0,44.0,10.0,6.0,17.0,39.0,659005,北屯市,87.9533151,47.24409572
5.0,4.0,912.0,223.0,72.0,32.0,79.0,316.0,652700,博尔塔拉蒙古自治州,82.10450617,44.72849642
8.0,29.0,4522.0,226.0,187.0,120.0,240.0,702.0,652300,昌吉回族自治州,88.63469305,44.34537993
26.0,50.0,2656.0,715.0,187.0,72.0,334.0,1386.0,650500,哈密市,93.51478478,43.03902053
6.0,10.0,3357.0,114.0,125.0,177.0,290.0,517.0,653200,和田地区,80.92034052,37.07196936
2.0,1e-06,170.0,8.0,8.0,2.0,1.0,14.0,659010,胡杨河市,84.78410368,44.84121023
33.0,22.0,7725.0,179.0,238.0,265.0,300.0,1718.0,653100,喀什地区,77.18565366,38.12784647
1e-06,2.0,98.0,19.0,2.0,6.0,15.0,7.0,659008,可克达拉市,80.68478349,43.91619011
1.0,20.0,1529.0,199.0,96.0,23.0,168.0,2664.0,650200,克拉玛依市,85.20177411,45.49257577
8.0,4.0,1989.0,63.0,101.0,122.0,94.0,361.0,653000,克孜勒苏柯尔克孜自治州,75.94469535,39.65549562
1e-06,1e-06,109.0,7.0,1.0,7.0,10.0,14.0,659009,昆玉市,79.02057264,37.47438194
4.0,1.0,517.0,7.0,54.0,22.0,74.0,163.0,659001,石河子市,86.03558277,44.30553786
1e-06,2.0,129.0,1.0,4.0,1.0,50.0,18.0,659007,双河市,82.35995107,44.87414296
6.0,33.0,4746.0,283.0,169.0,126.0,447.0,944.0,654200,塔城地区,84.79133863,45.64115399
2.0,1e-06,271.0,1e-06,12.0,4.0,22.0,40.0,659006,铁门关市,85.63722958,41.79844611
1e-06,1e-06,213.0,1e-06,1.0,29.0,1.0,1.0,659003,图木舒克市,79.16129407,39.86972663
55.0,38.0,2292.0,650.0,159.0,53.0,142.0,1021.0,650400,吐鲁番市,89.82962783,42.38781724
310.0,45.0,8055.0,1205.0,325.0,124.0,796.0,2658.0,650100,乌鲁木齐市,87.78095236,43.73150711
1e-06,1.0,145.0,1e-06,5.0,8.0,18.0,4.0,659004,五家渠市,87.55452236,44.36074215
14.0,11.0,5655.0,487.0,125.0,142.0,454.0,1192.0,654000,伊犁哈萨克自治州,82.12384007,43.44638579
22.0,34.0,2205.0,6.0,98.0,141.0,173.0,60.0,530500,保山市,98.97171094,24.97631107
61.0,109.0,4250.0,874.0,88.0,511.0,355.0,604.0,532300,楚雄彝族自治州,101.5680903,25.35205656
145.0,113.0,8931.0,422.0,1955.0,507.0,513.0,290.0,532900,大理白族自治州,100.0391885,25.72801376
17.0,24.0,3868.0,1e-06,135.0,156.0,215.0,448.0,533100,德宏傣族景颇族自治州,98.0849017,24.55904175
53.0,25.0,2129.0,1e-06,513.0,173.0,191.0,163.0,533400,迪庆藏族自治州,99.43991782,27.95674408
132.0,67.0,5157.0,465.0,254.0,492.0,1124.0,225.0,532500,红河哈尼族彝族自治州,103.0350178,23.43992745
563.0,200.0,13614.0,1610.0,1308.0,506.0,1038.0,1908.0,530100,昆明市,102.8727812,25.38683915
157.0,45.0,3580.0,42.0,481.0,288.0,300.0,354.0,530700,丽江市,100.523957,26.94064927
16.0,48.0,2360.0,1e-06,48.0,152.0,219.0,115.0,530900,临沧市,99.67293182,23.93912954
12.0,2.0,812.0,1e-06,45.0,146.0,223.0,18.0,533300,怒江傈僳族自治州,98.86955743,26.95909062
23.0,49.0,3164.0,1e-06,179.0,172.0,385.0,557.0,530800,普洱市,100.7202111,23.18638245
50.0,168.0,5830.0,811.0,141.0,403.0,1405.0,425.0,530300,曲靖市,103.9377706,25.7037554
18.0,51.0,4156.0,194.0,67.0,1020.0,709.0,219.0,532600,文山壮族苗族自治州,104.7136043,23.68968811
22.0,52.0,3704.0,1e-06,223.0,251.0,305.0,462.0,532800,西双版纳傣族自治州,100.9428653,21.93173858
28.0,94.0,3197.0,203.0,104.0,347.0,335.0,506.0,530400,玉溪市,102.2020078,24.13966474
36.0,84.0,5325.0,310.0,60.0,475.0,993.0,612.0,530600,昭通市,104.0020299,27.65344012
3657.0,498.0,41584.0,1165.0,3964.0,3633.0,7983.0,27625.0,330100,杭州市,119.4708146,29.89986219
72.0,52.0,6815.0,113.0,139.0,106.0,763.0,2867.0,330500,湖州市,119.8687764,30.74481198
187.0,38.0,8784.0,54.0,90.0,124.0,318.0,1567.0,330400,嘉兴市,120.7790269,30.62192563
95.0,114.0,12521.0,169.0,292.0,463.0,571.0,2472.0,330700,金华市,119.9522159,29.11710724
12.0,43.0,8112.0,367.0,131.0,965.0,419.0,963.0,331100,丽水市,119.5120275,28.19927708
202.0,131.0,19872.0,296.0,468.0,612.0,1856.0,5150.0,330200,宁波市,121.4789837,29.73047805
34.0,276.0,15120.0,121.0,368.0,10224.0,3751.0,16391.0,330800,衢州市,118.6745398,28.93436702
68.0,66.0,9368.0,52.0,111.0,349.0,514.0,1524.0,330600,绍兴市,120.6365604,29.7346077
63.0,83.0,11235.0,165.0,209.0,670.0,1445.0,5674.0,331000,台州市,121.1372207,28.75727043
50.0,27.0,9988.0,263.0,72.0,287.0,401.0,865.0,330300,温州市,120.4644063,27.89566818
27.0,29.0,2919.0,1e-06,91.0,95.0,1584.0,1955.0,330900,舟山市,122.1820674,30.1180369
406.0,386.0,40772.0,3525.0,1165.0,1973.0,6989.0,4783.0,500000,重庆市,107.874446,30.05717028
